
[{"title": "manager", "address": "76260 Sept-Meules, France", "location": "None", "journey": "1 month", "modality": "on site", "category": "IT", "description": "I want manager for this post", "requirement": "77 year experience for this", "zip": null, "datetime": null}, {"title": "manager", "address": "76260 Sept-Meules, France", "location": "49.9895521 , 1.4214813", "journey": "1 month", "modality": "on site", "category": "IT", "description": "I want manager for this post", "requirement": "77 year experience for this", "zip": null, "datetime": null}, {"title": "field", "address": "76260 Sept-Meules, France", "location": "49.9895521 , 1.4214813", "journey": "1 year", "modality": "remote ", "category": "Ttt", "description": "I want manager for this post", "requirement": "77 year experience for this", "zip": null, "datetime": null}, {"title": "manager", "address": "None", "location": "None", "journey": "1 month", "modality": "on site", "category": "IT", "description": "I want manager for this post", "requirement": "77 year experience for this", "zip": null, "datetime": null}, {"title": "manager", "address": "None", "location": "None", "journey": "1 month", "modality": "on site", "category": "IT", "description": "I want manager for this post", "requirement": "77 year experience for this", "zip": null, "datetime": null}, {"title": "loodgieter", "address": "3524 Utrecht, Netherlands", "location": "52.0610296 , 5.1338595", "journey": "3 weeks", "modality": "location", "category": "Bouw", "description": "het verbouwen van een badkamer", "requirement": "ervaring met het plaatsen van badmeubels", "zip": null, "datetime": null}, {"title": "loodgieter", "address": "3524 Utrecht, Netherlands", "location": "52.0610296 , 5.1338595", "journey": "3 weeks", "modality": "location", "category": "Bouw", "description": "het verbouwen van een badkamer", "requirement": "ervaring met het plaatsen van badmeubels", "zip": null, "datetime": null}, {"title": "loodgieter", "address": "3524 ZR Utrecht, Netherlands", "location": "52.0607032 , 5.136805499999999", "journey": "3 weeks", "modality": "location", "category": "Bouw", "description": "het verbouwen van een badkamer", "requirement": "ervaring met het plaatsen van badmeubels", "zip": "3524ZR", "datetime": null}, {"title": "manager", "address": "None", "location": "None", "journey": "1 month", "modality": "on site", "category": "IT", "description": "I want manager for this post", "requirement": "77 year experience for this", "zip": "2288", "datetime": null}, {"title": "M", "address": "None", "location": "None", "journey": " month", "modality": " site", "category": "None", "description": " want manager for this post", "requirement": " year experience for this", "zip": "None", "datetime": null}, {"title": "Ma", "address": "None", "location": "None", "journey": " month", "modality": " site", "category": "None", "description": " want manager for this post", "requirement": " year experience for this", "zip": "None", "datetime": null}, {"title": "Man", "address": "None", "location": "None", "journey": " month", "modality": " site", "category": "None", "description": " want manager for this post", "requirement": " year experience for this", "zip": "None", "datetime": null}, {"title": "Mana", "address": "None", "location": "None", "journey": " month", "modality": " site", "category": "None", "description": " want manager for this post", "requirement": " year experience for this", "zip": "None", "datetime": null}, {"title": "Manag", "address": "None", "location": "None", "journey": " month", "modality": " site", "category": "None", "description": " want manager for this post", "requirement": " year experience for this", "zip": "None", "datetime": null}, {"title": "Manage", "address": "None", "location": "None", "journey": " month", "modality": " site", "category": "None", "description": " want manager for this post", "requirement": " year experience for this", "zip": "None", "datetime": null}, {"title": "Manager", "address": "None", "location": "None", "journey": " month", "modality": " site", "category": "None", "description": " want manager for this post", "requirement": " year experience for this", "zip": "None", "datetime": null}, {"title": "Manag", "address": "None", "location": "None", "journey": " month", "modality": " site", "category": "None", "description": " want manager for this post", "requirement": " year experience for this", "zip": "None", "datetime": null}, {"title": "Man", "address": "None", "location": "None", "journey": " month", "modality": " site", "category": "None", "description": " want manager for this post", "requirement": " year experience for this", "zip": "None", "datetime": null}, {"title": "Mana", "address": "None", "location": "None", "journey": " month", "modality": " site", "category": "None", "description": " want manager for this post", "requirement": " year experience for this", "zip": "None", "datetime": null}, {"title": "Ma", "address": "None", "location": "None", "journey": " month", "modality": " site", "category": "None", "description": " want manager for this post", "requirement": " year experience for this", "zip": "None", "datetime": null}, {"title": "M", "address": "None", "location": "None", "journey": " month", "modality": " site", "category": "None", "description": " want manager for this post", "requirement": " year experience for this", "zip": "None", "datetime": null}, {"title": "None", "address": "None", "location": "None", "journey": " month", "modality": " site", "category": "None", "description": " want manager for this post", "requirement": " year experience for this", "zip": "None", "datetime": null}, {"title": "M", "address": "None", "location": "None", "journey": " month", "modality": " site", "category": "None", "description": " want manager for this post", "requirement": " year experience for this", "zip": "None", "datetime": null}, {"title": "Ma", "address": "None", "location": "None", "journey": " month", "modality": " site", "category": "None", "description": " want manager for this post", "requirement": " year experience for this", "zip": "None", "datetime": null}, {"title": "Man", "address": "None", "location": "None", "journey": " month", "modality": " site", "category": "None", "description": " want manager for this post", "requirement": " year experience for this", "zip": "None", "datetime": null}, {"title": "Mana", "address": "None", "location": "None", "journey": " month", "modality": " site", "category": "None", "description": " want manager for this post", "requirement": " year experience for this", "zip": "None", "datetime": null}, {"title": "Manag", "address": "None", "location": "None", "journey": " month", "modality": " site", "category": "None", "description": " want manager for this post", "requirement": " year experience for this", "zip": "None", "datetime": null}, {"title": "Manage", "address": "None", "location": "None", "journey": " month", "modality": " site", "category": "None", "description": " want manager for this post", "requirement": " year experience for this", "zip": "None", "datetime": null}, {"title": "None", "address": "None", "location": "None", "journey": " month", "modality": " site", "category": "None", "description": " want manager for this post", "requirement": " year experience for this", "zip": "None", "datetime": null}, {"title": "D", "address": "None", "location": "None", "journey": " month", "modality": " site", "category": "None", "description": " want manager for this post", "requirement": " year experience for this", "zip": "None", "datetime": null}, {"title": "De", "address": "None", "location": "None", "journey": " month", "modality": " site", "category": "None", "description": " want manager for this post", "requirement": " year experience for this", "zip": "None", "datetime": null}, {"title": "Dew", "address": "None", "location": "None", "journey": " month", "modality": " site", "category": "None", "description": " want manager for this post", "requirement": " year experience for this", "zip": "None", "datetime": null}, {"title": "None", "address": "None", "location": "None", "journey": " month", "modality": " site", "category": "None", "description": " want manager for this post", "requirement": " year experience for this", "zip": "None", "datetime": null}, {"title": "D", "address": "None", "location": "None", "journey": " month", "modality": " site", "category": "None", "description": " want manager for this post", "requirement": " year experience for this", "zip": "None", "datetime": null}, {"title": "De", "address": "None", "location": "None", "journey": " month", "modality": " site", "category": "None", "description": " want manager for this post", "requirement": " year experience for this", "zip": "None", "datetime": null}, {"title": "Dev", "address": "None", "location": "None", "journey": " month", "modality": " site", "category": "None", "description": " want manager for this post", "requirement": " year experience for this", "zip": "None", "datetime": null}, {"title": "None", "address": "None", "location": "None", "journey": " month", "modality": " site", "category": "None", "description": " want manager for this post", "requirement": " year experience for this", "zip": "None", "datetime": null}, {"title": "D", "address": "None", "location": "None", "journey": " month", "modality": " site", "category": "None", "description": " want manager for this post", "requirement": " year experience for this", "zip": "None", "datetime": null}, {"title": "De", "address": "None", "location": "None", "journey": " month", "modality": " site", "category": "None", "description": " want manager for this post", "requirement": " year experience for this", "zip": "None", "datetime": null}, {"title": "Dev", "address": "None", "location": "None", "journey": " month", "modality": " site", "category": "None", "description": " want manager for this post", "requirement": " year experience for this", "zip": "None", "datetime": null}, {"title": "Deve", "address": "None", "location": "None", "journey": " month", "modality": " site", "category": "None", "description": " want manager for this post", "requirement": " year experience for this", "zip": "None", "datetime": null}, {"title": "Devel", "address": "None", "location": "None", "journey": " month", "modality": " site", "category": "None", "description": " want manager for this post", "requirement": " year experience for this", "zip": "None", "datetime": null}, {"title": "Develop", "address": "None", "location": "None", "journey": " month", "modality": " site", "category": "None", "description": " want manager for this post", "requirement": " year experience for this", "zip": "None", "datetime": null}, {"title": "Develope", "address": "None", "location": "None", "journey": " month", "modality": " site", "category": "None", "description": " want manager for this post", "requirement": " year experience for this", "zip": "None", "datetime": null}, {"title": "Developer", "address": "None", "location": "None", "journey": " month", "modality": " site", "category": "None", "description": " want manager for this post", "requirement": " year experience for this", "zip": "None", "datetime": null}, {"title": "Developer", "address": "None", "location": "None", "journey": " month", "modality": " site", "category": "None", "description": " want manager for this post", "requirement": " year experience for this", "zip": "1", "datetime": null}, {"title": "Developer", "address": "None", "location": "None", "journey": " month", "modality": " site", "category": "None", "description": " want manager for this post", "requirement": " year experience for this", "zip": "12", "datetime": null}, {"title": "Developer", "address": "None", "location": "None", "journey": " month", "modality": " site", "category": "None", "description": " want manager for this post", "requirement": " year experience for this", "zip": "123", "datetime": null}, {"title": "Developer", "address": "None", "location": "None", "journey": "A month", "modality": " site", "category": "None", "description": " want manager for this post", "requirement": " year experience for this", "zip": "123", "datetime": null}, {"title": "Developer", "address": "None", "location": "None", "journey": "Ab month", "modality": " site", "category": "None", "description": " want manager for this post", "requirement": " year experience for this", "zip": "123", "datetime": null}, {"title": "Developer", "address": "None", "location": "None", "journey": "ABC month", "modality": "Remotely site", "category": "IT", "description": "DESC want manager for this post", "requirement": "Master Degree year experience for this", "zip": "123", "datetime": null}, {"title": "Developer", "address": "None", "location": "None", "journey": "ABC month", "modality": "Remotely site", "category": "IT", "description": " want manager for this post", "requirement": "Master Degree year experience for this", "zip": "123", "datetime": null}, {"title": "None", "address": "None", "location": "None", "journey": "ABC month", "modality": "Remotely site", "category": "IT", "description": " want manager for this post", "requirement": "Master Degree year experience for this", "zip": "None", "datetime": null}, {"title": "developer for python", "address": "None", "location": "None", "journey": "1 year month", "modality": "Remotely site", "category": "Bouw", "description": "1 year need for this want manager for this post", "requirement": "master degree for this and nice person for this year experience for this", "zip": "2288", "datetime": null}, {"title": "None", "address": "None", "location": "None", "journey": " month", "modality": " site", "category": "None", "description": " want manager for this post", "requirement": " year experience for this", "zip": "None", "datetime": null}, {"title": "None", "address": "None", "location": "None", "journey": " month", "modality": " site", "category": "None", "description": " want manager for this post", "requirement": " year experience for this", "zip": "None", "datetime": null}, {"title": "None", "address": "None", "location": "None", "journey": " month", "modality": " site", "category": "None", "description": " want manager for this post", "requirement": " year experience for this", "zip": "None", "datetime": null}, {"title": "None", "address": "None", "location": "None", "journey": " month", "modality": " site", "category": "None", "description": " want manager for this post", "requirement": " year experience for this", "zip": "None", "datetime": null}, {"title": "None", "address": "None", "location": "None", "journey": " month", "modality": " site", "category": "None", "description": " want manager for this post", "requirement": " year experience for this", "zip": "None", "datetime": null}, {"title": "None", "address": "None", "location": "None", "journey": " month", "modality": " site", "category": "None", "description": " want manager for this post", "requirement": " year experience for this", "zip": "None", "datetime": null}, {"title": "None", "address": "None", "location": "None", "journey": " month", "modality": " site", "category": "None", "description": " want manager for this post", "requirement": " year experience for this", "zip": "None", "datetime": null}, {"title": "None", "address": "None", "location": "None", "journey": " month", "modality": " site", "category": "None", "description": " want manager for this post", "requirement": " year experience for this", "zip": "None", "datetime": null}, {"title": "None", "address": "None", "location": "None", "journey": " month", "modality": " site", "category": "None", "description": " want manager for this post", "requirement": " year experience for this", "zip": "None", "datetime": null}, {"title": "None", "address": "None", "location": "None", "journey": " month", "modality": " site", "category": "None", "description": " want manager for this post", "requirement": " year experience for this", "zip": "None", "datetime": null}, {"title": "None", "address": "None", "location": "None", "journey": " month", "modality": " site", "category": "None", "description": " want manager for this post", "requirement": " year experience for this", "zip": "None", "datetime": null}, {"title": "None", "address": "None", "location": "None", "journey": " month", "modality": " site", "category": "None", "description": " want manager for this post", "requirement": " year experience for this", "zip": "None", "datetime": null}, {"title": "None", "address": "None", "location": "None", "journey": " month", "modality": " site", "category": "None", "description": " want manager for this post", "requirement": " year experience for this", "zip": "None", "datetime": null}, {"title": "None", "address": "None", "location": "None", "journey": " month", "modality": " site", "category": "None", "description": " want manager for this post", "requirement": " year experience for this", "zip": "None", "datetime": null}, {"title": "None", "address": "None", "location": "None", "journey": " month", "modality": " site", "category": "None", "description": " want manager for this post", "requirement": " year experience for this", "zip": "None", "datetime": null}, {"title": "None", "address": "None", "location": "None", "journey": " month", "modality": " site", "category": "None", "description": " want manager for this post", "requirement": " year experience for this", "zip": "None", "datetime": null}, {"title": "None", "address": "None", "location": "None", "journey": " month", "modality": " site", "category": "None", "description": " want manager for this post", "requirement": " year experience for this", "zip": "None", "datetime": null}, {"title": "None", "address": "None", "location": "None", "journey": " month", "modality": " site", "category": "None", "description": " want manager for this post", "requirement": " year experience for this", "zip": "None", "datetime": null}, {"title": "None", "address": "None", "location": "None", "journey": " month", "modality": " site", "category": "None", "description": " want manager for this post", "requirement": " year experience for this", "zip": "None", "datetime": null}, {"title": "None", "address": "None", "location": "None", "journey": " month", "modality": " site", "category": "None", "description": " want manager for this post", "requirement": " year experience for this", "zip": "None", "datetime": null}, {"title": "None", "address": "None", "location": "None", "journey": " month", "modality": " site", "category": "None", "description": " want manager for this post", "requirement": " year experience for this", "zip": "None", "datetime": null}, {"title": "None", "address": "None", "location": "None", "journey": " month", "modality": " site", "category": "None", "description": " want manager for this post", "requirement": " year experience for this", "zip": "None", "datetime": null}, {"title": "None", "address": "None", "location": "None", "journey": " month", "modality": " site", "category": "None", "description": " want manager for this post", "requirement": " year experience for this", "zip": "None", "datetime": null}, {"title": "None", "address": "None", "location": "None", "journey": " month", "modality": " site", "category": "None", "description": " want manager for this post", "requirement": " year experience for this", "zip": "None", "datetime": null}, {"title": "None", "address": "None", "location": "None", "journey": " month", "modality": " site", "category": "None", "description": " want manager for this post", "requirement": " year experience for this", "zip": "None", "datetime": null}, {"title": "None", "address": "None", "location": "None", "journey": " month", "modality": " site", "category": "None", "description": " want manager for this post", "requirement": " year experience for this", "zip": "None", "datetime": null}, {"title": "None", "address": "None", "location": "None", "journey": " month", "modality": " site", "category": "None", "description": " want manager for this post", "requirement": " year experience for this", "zip": "None", "datetime": null}, {"title": "None", "address": "None", "location": "None", "journey": " month", "modality": " site", "category": "None", "description": " want manager for this post", "requirement": " year experience for this", "zip": "None", "datetime": null}, {"title": "None", "address": "None", "location": "None", "journey": " month", "modality": " site", "category": "None", "description": " want manager for this post", "requirement": " year experience for this", "zip": "None", "datetime": null}, {"title": "None", "address": "None", "location": "None", "journey": " month", "modality": " site", "category": "None", "description": " want manager for this post", "requirement": " year experience for this", "zip": "None", "datetime": null}, {"title": "None", "address": "None", "location": "None", "journey": " month", "modality": " site", "category": "None", "description": " want manager for this post", "requirement": " year experience for this", "zip": "None", "datetime": null}, {"title": "None", "address": "None", "location": "None", "journey": " month", "modality": " site", "category": "None", "description": " want manager for this post", "requirement": " year experience for this", "zip": "None", "datetime": null}, {"title": "None", "address": "None", "location": "None", "journey": " month", "modality": " site", "category": "None", "description": " want manager for this post", "requirement": " year experience for this", "zip": "None", "datetime": null}, {"title": "None", "address": "None", "location": "None", "journey": " month", "modality": " site", "category": "None", "description": " want manager for this post", "requirement": " year experience for this", "zip": "None", "datetime": null}, {"title": "None", "address": "None", "location": "None", "journey": " month", "modality": " site", "category": "None", "description": " want manager for this post", "requirement": " year experience for this", "zip": "None", "datetime": null}, {"title": "None", "address": "None", "location": "None", "journey": " month", "modality": " site", "category": "None", "description": " want manager for this post", "requirement": " year experience for this", "zip": "None", "datetime": null}, {"title": "None", "address": "None", "location": "None", "journey": " month", "modality": " site", "category": "None", "description": " want manager for this post", "requirement": " year experience for this", "zip": "None", "datetime": null}, {"title": "None", "address": "None", "location": "None", "journey": " month", "modality": " site", "category": "None", "description": " want manager for this post", "requirement": " year experience for this", "zip": "None", "datetime": null}, {"title": "Manager", "address": "None", "location": "None", "journey": "Pakistan month", "modality": "Remotely site", "category": "[object Object]", "description": "This is a manager post want manager for this post", "requirement": "Bachelors year experience for this", "zip": "2288", "datetime": null}, {"title": "Manager", "address": "None", "location": "None", "journey": "Pakistan month", "modality": "Remotely site", "category": "[object Object]", "description": "This is a manager post want manager for this post", "requirement": "Bachelors year experience for this", "zip": "2288", "datetime": null}, {"title": "None", "address": "None", "location": "None", "journey": " month", "modality": " site", "category": "None", "description": " want manager for this post", "requirement": " year experience for this", "zip": "None", "datetime": null}, {"title": "manager on site", "address": "None", "location": "None", "journey": "1 month month", "modality": "Remotely site", "category": "[object Object]", "description": "ncalkscndlkvcnsd want manager for this post", "requirement": "jcklsdncvdlskvndslkvsd year experience for this", "zip": "2288", "datetime": null}, {"title": "manger", "address": "None", "location": "None", "journey": "1 month month", "modality": "Remotely site", "category": "[object Object]", "description": "ahgiukagcv want manager for this post", "requirement": "a[spkc[pascvje year experience for this", "zip": "2288", "datetime": null}, {"title": "test", "address": "None", "location": "None", "journey": "1 sds month", "modality": "Hybrid site", "category": "[object Object]", "description": "asa want manager for this post", "requirement": "asasas year experience for this", "zip": "228", "datetime": "2022-11-23T10:00:51"}, {"title": "tttttttt", "address": "None", "location": "None", "journey": "tttttt month", "modality": "Remotely site", "category": "[object Object]", "description": "ttttttt want manager for this post", "requirement": "tttttt year experience for this", "zip": "tttt", "datetime": "2022-11-23T10:07:17"}, {"title": "1233455", "address": "None", "location": "None", "journey": "1year month", "modality": "Remotely site", "category": "[object Object]", "description": "testttt want manager for this post", "requirement": "ttetsttst year experience for this", "zip": "2288", "datetime": "2022-11-25T11:31:11"}, {"title": "manager for site here need it", "address": "None", "location": "None", "journey": "1 year for site month", "modality": "Hybrid site", "category": "[object Object]", "description": "anyone want manager for this post", "requirement": "anything year experience for this", "zip": "2288", "datetime": "2022-11-26T11:26:26"}, {"title": "martin manager here", "address": "None", "location": "None", "journey": "whole life month", "modality": "Remotely site", "category": "[object Object]", "description": "i need some for this project  want manager for this post", "requirement": "master phd year experience for this", "zip": "2288", "datetime": "2022-11-28T18:46:07"}, {"title": "asaad manager need", "address": "None", "location": "None", "journey": "1 year month", "modality": "Remotely site", "category": "[object Object]", "description": "we need it  want manager for this post", "requirement": "only work year experience for this", "zip": "2288", "datetime": "2022-12-03T11:39:49"}, {"title": "esat testing", "address": "None", "location": "None", "journey": "Front end month", "modality": "Remotely site", "category": "[object Object]", "description": "Checking if everything is okay want manager for this post", "requirement": "This should be displayed on DB year experience for this", "zip": "Remote", "datetime": "2022-12-03T12:00:17"}, {"title": "Developer", "address": "None", "location": "None", "journey": "PC also month", "modality": "Hybrid site", "category": "[object Object]", "description": "checking console log want manager for this post", "requirement": "chrome console log year experience for this", "zip": "PC", "datetime": "2022-12-03T12:43:39"}, {"title": "None", "address": "None", "location": "None", "journey": " month", "modality": " site", "category": "None", "description": " want manager for this post", "requirement": " year experience for this", "zip": "None", "datetime": "2022-12-03T13:10:28"}, {"title": "teting", "address": "None", "location": "None", "journey": " month", "modality": "Remotely site", "category": "[object Object]", "description": "rgr want manager for this post", "requirement": "rgr year experience for this", "zip": "None", "datetime": "2022-12-04T13:06:44"}, {"title": "test test", "address": "None", "location": "None", "journey": "bali month", "modality": "Hybrid site", "category": "Sport en bewegen", "description": "lorem real want manager for this post", "requirement": "rgrg year experience for this", "zip": "None", "datetime": "2022-12-04T13:11:00"}, {"title": "project leader ", "address": "None", "location": "None", "journey": "6 months month", "modality": " site", "category": "Bouw", "description": " want manager for this post", "requirement": " year experience for this", "zip": "2288", "datetime": "2022-12-05T07:38:34"}]